{"map":{"locations":{"1":{"city":"臺北市","hospital":"國立臺灣大學醫學院附設醫院北護分院","lat":25.091075,"lng":121.5598345},"2":{"city":"新北市","hospital":"財團法人天主教耕莘醫院","lat":24.9761244,"lng":121.5355229},"5":{"city":"臺北市","hospital":"三軍總醫院","lat":25.0716473,"lng":121.5930074},"6":{"city":"臺北市","hospital":"台大北護分院","lat":25.042141,"lng":121.502483}},"hospitals":{"臺北市國立臺灣大學醫學院附設醫院北護分院":{"id":1,"city":"臺北市","hospital":"國立臺灣大學醫學院附設醫院北護分院"},"臺北市北護分院":{"id":1,"city":"臺北市","hospital":"北護分院"},"新北市財團法人天主教耕莘醫院":{"id":2,"city":"新北市","hospital":"財團法人天主教耕莘醫院"},"臺北市三軍總醫院":{"id":5,"city":"臺北市","hospital":"三軍總醫院"},"臺北市台大北護分院":{"id":6,"city":"臺北市","hospital":"台大北護分院"}}},"comments":{"臺北市國立臺灣大學醫學院附設醫院北護分院":{"name":"國立臺灣大學醫學院附設醫院北護分院","city":"臺北市","comments":["內容1","爆料內容2",""]},"新北市財團法人天主教耕莘醫院":{"name":"財團法人天主教耕莘醫院","city":"新北市","comments":["test2內容\nline2 <h2> header2 </h2>"]},"臺北市北護分院":{"name":"北護分院","city":"臺北市","comments":["qq"]},"臺北市三軍總醫院":{"name":"三軍總醫院","city":"臺北市","comments":["爆料內容～"]},"臺北市台大北護分院":{"name":"台大北護分院","city":"臺北市","comments":["test5"]}}}
